[
  {
    "name": "مرکز تحقیقاتی هسته‌ای تهران – چمران",
    "type": "oil",
    "date": "2025-06-14",
    "notes": "blackout in area",
    "Category": "Energy Facilities",
    "Role": "Research Center",
    "Coordinates": "35.7325, 51.368",
    "Province": "Tehran",
    "City": "Tehran",
    "Address": "Research Avenue",
    "Details": "Critical energy research site",
    "Casualties": 5,
    "Injured": 2,
    "Killed": 1
  },
  {
    "name": "لویزان – مظنون به فعالیت هسته‌ای",
    "type": "military",
    "date": "2025-06-15",
    "notes": "communications lost",
    "Category": "Military Bases",
    "Role": "Suspicious Activity",
    "Coordinates": "35.747, 51.498",
    "Province": "Tehran",
    "City": "Tehran",
    "Address": "Loyzan District",
    "Details": "Suspected nuclear activity",
    "Casualties": 10,
    "Injured": 4,
    "Killed": 3
  },
  {
    "name": "پایگاه هوایی دوشان‌تپه",
    "type": "killed",
    "date": "2025-06-14",
    "notes": "army boss injured",
    "Category": "Air Bases",
    "Role": "Military Base",
    "Coordinates": "35.728, 51.5025",
    "Province": "Tehran",
    "City": "Tehran",
    "Address": "Dushan Tappeh Airbase",
    "Details": "Military airbase with recent activity",
    "Casualties": 8,
    "Injured": 3,
    "Killed": 6
  },
  {
    "name": "قرارگاه ثارالله – تهران",
    "type": "injured",
    "date": "2025-06-15",
    "notes": "missile strike",
    "Category": "Military Bases",
    "Role": "Command Center",
    "Coordinates": "35.7446, 51.3843",
    "Province": "Tehran",
    "City": "Tehran",
    "Address": "Tharallah Base",
    "Details": "Key military command center",
    "Casualties": 15,
    "Injured": 7,
    "Killed": 5
  },
  {
    "name": "پایگاه هوایی فتح کرج (OIIF)",
    "type": "oil",
    "date": "2025-06-14",
    "notes": "army boss injured",
    "Category": "Air Bases",
    "Role": "Military Base",
    "Coordinates": "35.7674, 50.944",
    "Province": "Alborz",
    "City": "Karaj",
    "Address": "Fath Airbase",
    "Details": "Strategic airbase in Karaj",
    "Casualties": 7,
    "Injured": 2,
    "Killed": 3
  },
  {
    "name": "مرکز تحقیقات هسته‌ای کرج – هشتگرد",
    "type": "nuclear",
    "date": "2025-06-13",
    "notes": "communications lost",
    "Category": "Energy Facilities",
    "Role": "Research Center",
    "Coordinates": "35.9592, 50.6928",
    "Province": "Alborz",
    "City": "Hashtgerd",
    "Address": "Nuclear Research Center",
    "Details": "Nuclear research facility in Alborz",
    "Casualties": 6,
    "Injured": 3,
    "Killed": 2
  },
  {
    "name": "تأسیسات دفع زباله هسته‌ای کرج",
    "type": "utility",
    "date": "2025-06-16",
    "notes": "civilian casualties",
    "Category": "Utility Facilities",
    "Role": "Waste Disposal",
    "Coordinates": "35.9565, 50.7",
    "Province": "Alborz",
    "City": "Karaj",
    "Address": "Waste Disposal Site",
    "Details": "Site for nuclear waste disposal",
    "Casualties": 20,
    "Injured": 10,
    "Killed": 5
  },
  {
    "name": "کارخانه ساخت پهپاد – کرج",
    "type": "target",
    "date": "2025-06-15",
    "notes": "communications lost",
    "Category": "Manufacturing",
    "Role": "Drone Factory",
    "Coordinates": "35.842, 50.938",
    "Province": "Alborz",
    "City": "Karaj",
    "Address": "Drone Manufacturing Plant",
    "Details": "Factory for military drones",
    "Casualties": 4,
    "Injured": 1,
    "Killed": 0
  },
  {
    "name": "Fordow – تأسیسات غنی‌سازی اورانیوم",
    "type": "utility",
    "date": "2025-06-15",
    "notes": "family killed",
    "Category": "Energy Facilities",
    "Role": "Uranium Enrichment",
    "Coordinates": "34.7, 50.996",
    "Province": "Qom",
    "City": "Fordow",
    "Address": "Enrichment Facility",
    "Details": "Uranium enrichment site",
    "Casualties": 12,
    "Injured": 5,
    "Killed": 8
  },
  {
    "name": "سپاه علی‌بن‌ابی‌طالب – قم",
    "type": "oil",
    "date": "2025-06-13",
    "notes": "missile strike",
    "Category": "Military Bases",
    "Role": "Oil Facility",
    "Coordinates": "34.6469, 50.8761",
    "Province": "Qom",
    "City": "Qom",
    "Address": "Ali ibn Abi Talib Base",
    "Details": "Military base with oil facility",
    "Casualties": 9,
    "Injured": 3,
    "Killed": 4
  },
  {
    "name": "پادگان خیبر – قم",
    "type": "killed",
    "date": "2025-06-13",
    "notes": "airstrike confirmed",
    "Category": "Military Bases",
    "Role": "Military Base",
    "Coordinates": "34.604, 51.003",
    "Province": "Qom",
    "City": "Qom",
    "Address": "Khaybar Base",
    "Details": "Military base in Qom",
    "Casualties": 11,
    "Injured": 5,
    "Killed": 7
  },
  {
    "name": "پایگاه بسیج شهید فهمیده – شهرک قدس قم",
    "type": "injured",
    "date": "2025-06-14",
    "notes": "commander wounded",
    "Category": "Military Bases",
    "Role": "Bajis Base",
    "Coordinates": "34.6425, 50.871",
    "Province": "Qom",
    "City": "Qom",
    "Address": "Shahid Fahmideh Base",
    "Details": "Bajis base with recent activity",
    "Casualties": 6,
    "Injured": 2,
    "Killed": 1
  },
  {
    "name": "مرکز فناوری هسته‌ای اصفهان (INTC)",
    "type": "injured",
    "date": "2025-06-14",
    "notes": "communications lost",
    "Category": "Energy Facilities",
    "Role": "Research Center",
    "Coordinates": "32.6257, 51.6945",
    "Province": "Isfahan",
    "City": "Isfahan",
    "Address": "Nuclear Technology Center",
    "Details": "Center for nuclear technology research",
    "Casualties": 3,
    "Injured": 1,
    "Killed": 0
  },
  {
    "name": "مرکز تبدیل اورانیوم UCF",
    "type": "military",
    "date": "2025-06-15",
    "notes": "communications lost",
    "Category": "Military Bases",
    "Role": "Uranium Conversion",
    "Coordinates": "32.5, 51.85",
    "Province": "Isfahan",
    "City": "Isfahan",
    "Address": "Uranium Conversion Facility",
    "Details": "Facility for converting uranium",
    "Casualties": 4,
    "Injured": 2,
    "Killed": 1
  },
  {
    "name": "کارخانه تولید سوخت و پلاکت",
    "type": "nuclear",
    "date": "2025-06-14",
    "notes": "explosion reported",
    "Category": "Manufacturing",
    "Role": "Fuel and Pellet Production",
    "Coordinates": "32.51, 51.87",
    "Province": "Isfahan",
    "City": "Isfahan",
    "Address": "Fuel and Pellet Factory",
    "Details": "Factory for nuclear fuel production",
    "Casualties": 10,
    "Injured": 5,
    "Killed": 3
  },
  {
    "name": "تأسیسات نگهداری زباله هسته‌ای اصفهان",
    "type": "killed",
    "date": "2025-06-14",
    "notes": "blackout in area",
    "Category": "Utility Facilities",
    "Role": "Nuclear Waste Storage",
    "Coordinates": "32.48, 51.89",
    "Province": "Isfahan",
    "City": "Isfahan",
    "Address": "Nuclear Waste Storage Site",
    "Details": "Storage site for nuclear waste",
    "Casualties": 8,
    "Injured": 3,
    "Killed": 2
  },
  {
    "name": "نطنز – مرکز غنی‌سازی اورانیوم",
    "type": "utility",
    "date": "2025-06-15",
    "notes": "airstrike confirmed",
    "Category": "Energy Facilities",
    "Role": "Uranium Enrichment",
    "Coordinates": "33.7266, 51.8606",
    "Province": "Isfahan",
    "City": "Natanz",
    "Address": "Natanz Enrichment Facility",
    "Details": "Key site for uranium enrichment",
    "Casualties": 9,
    "Injured": 4,
    "Killed": 3
  },
  {
    "name": "راکتور آب سنگین اراک",
    "type": "military",
    "date": "2025-06-15",
    "notes": "nuclear site hit",
    "Category": "Military Bases",
    "Role": "Heavy Water Reactor",
    "Coordinates": "34.4036, 49.2224",
    "Province": "Markazi",
    "City": "Arak",
    "Address": "Heavy Water Reactor Facility",
    "Details": "Facility with heavy water reactor",
    "Casualties": 7,
    "Injured": 3,
    "Killed": 2
  },
  {
    "name": "کارخانه آب سنگین",
    "type": "nuclear",
    "date": "2025-06-13",
    "notes": "family killed",
    "Category": "Manufacturing",
    "Role": "Heavy Water Production",
    "Coordinates": "34.405, 49.23",
    "Province": "Markazi",
    "City": "Arak",
    "Address": "Heavy Water Production Plant",
    "Details": "Plant for producing heavy water",
    "Casualties": 5,
    "Injured": 2,
    "Killed": 1
  },
  {
    "name": "پدافند هوایی اراک",
    "type": "killed",
    "date": "2025-06-13",
    "notes": "airstrike confirmed",
    "Category": "Military Bases",
    "Role": "Air Defense",
    "Coordinates": "34.42, 49.21",
    "Province": "Markazi",
    "City": "Arak",
    "Address": "Air Defense Base",
    "Details": "Base for air defense systems",
    "Casualties": 6,
    "Injured": 3,
    "Killed": 2
  },
  {
    "name": "پادگان مالک اشتر – اراک",
    "type": "injured",
    "date": "2025-06-15",
    "notes": "missile strike",
    "Category": "Military Bases",
    "Role": "Artillery Base",
    "Coordinates": "34.4185, 49.228",
    "Province": "Markazi",
    "City": "Arak",
    "Address": "Malek Ashtar Base",
    "Details": "Artillery base with recent activity",
    "Casualties": 8,
    "Injured": 4,
    "Killed": 2
  },
  {
    "name": "پادگان شهید ملکی – اراک",
    "type": "military",
    "date": "2025-06-14",
    "notes": "commander wounded",
    "Category": "Military Bases",
    "Role": "Infantry Base",
    "Coordinates": "34.414, 49.234",
    "Province": "Markazi",
    "City": "Arak",
    "Address": "Shahid Maleki Base",
    "Details": "Infantry base in Arak",
    "Casualties": 7,
    "Injured": 3,
    "Killed": 1
  },
  {
    "name": "پایگاه هوایی شیراز (7th TAB)",
    "type": "nuclear",
    "date": "2025-06-15",
    "notes": "nuclear site hit",
    "Category": "Air Bases",
    "Role": "Military Base",
    "Coordinates": "29.5398, 52.5895",
    "Province": "Fars",
    "City": "Shiraz",
    "Address": "Shahid Nojeh Airbase",
    "Details": "Airbase with nuclear capabilities",
    "Casualties": 5,
    "Injured": 2,
    "Killed": 1
  },
  {
    "name": "تیپ ۵۵ هوابرد شیراز",
    "type": "killed",
    "date": "2025-06-15",
    "notes": "explosion reported",
    "Category": "Military Units",
    "Role": "Airborne Division",
    "Coordinates": "29.63, 52.545",
    "Province": "Fars",
    "City": "Shiraz",
    "Address": "55th Airborne Division Base",
    "Details": "Base for airborne military operations",
    "Casualties": 6,
    "Injured": 3,
    "Killed": 2
  },
  {
    "name": "ستاد فرماندهی هوایی شیراز",
    "type": "injured",
    "date": "2025-06-13",
    "notes": "family killed",
    "Category": "Military Bases",
    "Role": "Air Force Headquarters",
    "Coordinates": "29.61, 52.583",
    "Province": "Fars",
    "City": "Shiraz",
    "Address": "Air Force Command Center",
    "Details": "Headquarters of the air force",
    "Casualties": 10,
    "Injured": 5,
    "Killed": 3
  },
  {
    "name": "کارخانه موشکی شیراز",
    "type": "military",
    "date": "2025-06-14",
    "notes": "family killed",
    "Category": "Manufacturing",
    "Role": "Missile Production",
    "Coordinates": "29.624, 52.56",
    "Province": "Fars",
    "City": "Shiraz",
    "Address": "Missile Factory",
    "Details": "Factory for military missile production",
    "Casualties": 7,
    "Injured": 3,
    "Killed": 2
  },
  {
    "name": "پادگان نظامی – تهران، بلوار دریا",
    "type": "nuclear",
    "date": "2025-06-15",
    "notes": "civilian casualties",
    "Category": "Military Bases",
    "Role": "Military Base",
    "Coordinates": "35.782, 51.3365",
    "Province": "Tehran",
    "City": "Tehran",
    "Address": "Naval Base",
    "Details": "Naval base with recent activity",
    "Casualties": 9,
    "Injured": 4,
    "Killed": 3
  },
  {
    "name": "خاتم‌الانبیا – پروژه پتروشیمی دماوند، شهرک غرب",
    "type": "oil",
    "date": "2025-06-15",
    "notes": "blackout in area",
    "Category": "Energy Facilities",
    "Role": "Petrochemical Complex",
    "Coordinates": "35.767, 51.374",
    "Province": "Tehran",
    "City": "Tehran",
    "Address": "Khatam al-Anbiya Complex",
    "Details": "Petrochemical complex in Tehran",
    "Casualties": 8,
    "Injured": 3,
    "Killed": 2
  },
  {
    "name": "پژوهشکده قرارگاه خاتم‌الانبیا – بزرگراه بابایی",
    "type": "injured",
    "date": "2025-06-13",
    "notes": "army boss injured",
    "Category": "Military Bases",
    "Role": "Research Center",
    "Coordinates": "35.7665, 51.519",
    "Province": "Tehran",
    "City": "Tehran",
    "Address": "Khatam al-Anbiya Research Center",
    "Details": "Research center with military focus",
    "Casualties": 5,
    "Injured": 2,
    "Killed": 1
  },
  {
    "name": "قرارگاه پدافند هوایی خاتم‌الانبیا – اتوبان بسیج",
    "type": "military",
    "date": "2025-06-14",
    "notes": "civilian casualties",
    "Category": "Military Bases",
    "Role": "Air Defense Base",
    "Coordinates": "35.645, 51.496",
    "Province": "Tehran",
    "City": "Tehran",
    "Address": "Khatam al-Anbiya Air Defense Base",
    "Details": "Air defense base in Tehran",
    "Casualties": 11,
    "Injured": 5,
    "Killed": 3
  },
  {
    "name": "دفتر استخدام نیروی هوایی – شیراز، بلوار مدرس",
    "type": "nuclear",
    "date": "2025-06-13",
    "notes": "site under siege",
    "Category": "Military Bases",
    "Role": "Recruitment Office",
    "Coordinates": "29.6175, 52.5265",
    "Province": "Fars",
    "City": "Shiraz",
    "Address": "Air Force Recruitment Office",
    "Details": "Recruitment office for the air force",
    "Casualties": 4,
    "Injured": 2,
    "Killed": 1
  },
  {
    "name": "دفتر استخدام – اصفهان، خیابان جی",
    "type": "killed",
    "date": "2025-06-15",
    "notes": "communications lost",
    "Category": "Military Bases",
    "Role": "Recruitment Office",
    "Coordinates": "32.6842, 51.7331",
    "Province": "Isfahan",
    "City": "Isfahan",
    "Address": "Recruitment Office",
    "Details": "Military recruitment office",
    "Casualties": 6,
    "Injured": 3,
    "Killed": 2
  },
  {
    "name": "دفتر استخدام – تبریز، جاده آذرشهر",
    "type": "injured",
    "date": "2025-06-14",
    "notes": "explosion reported",
    "Category": "Military Bases",
    "Role": "Recruitment Office",
    "Coordinates": "38.0211, 46.219",
    "Province": "East Azerbaijan",
    "City": "Tabriz",
    "Address": "Recruitment Office",
    "Details": "Military recruitment office",
    "Casualties": 5,
    "Injured": 2,
    "Killed": 1
  },
  {
    "name": "پایگاه نوژه – کبودرآهنگ، همدان",
    "type": "military",
    "date": "2025-06-13",
    "notes": "site under siege",
    "Category": "Military Bases",
    "Role": "Air Base",
    "Coordinates": "35.2, 48.705",
    "Province": "Hamadan",
    "City": "Kabudarahang",
    "Address": "Nojeh Airbase",
    "Details": "Airbase in Hamadan province",
    "Casualties": 7,
    "Injured": 3,
    "Killed": 2
  },
  {
    "name": "پایگاه شکاری – بین دزفول و اندیمشک",
    "type": "target",
    "date": "2025-06-15",
    "notes": "airstrike confirmed",
    "Category": "Military Bases",
    "Role": "Air Base",
    "Coordinates": "32.3833, 48.4166",
    "Province": "Khuzestan",
    "City": "Deyr",
    "Address": "Shikari Airbase",
    "Details": "Airbase between Dezful and Andimeshk",
    "Casualties": 6,
    "Injured": 3,
    "Killed": 2
  },
  {
    "name": "پدافند بوشهر – خیابان سنگی",
    "type": "killed",
    "date": "2025-06-14",
    "notes": "army boss injured",
    "Category": "Military Bases",
    "Role": "Air Defense",
    "Coordinates": "28.9225, 50.83",
    "Province": "Bushehr",
    "City": "Bushehr",
    "Address": "Sangi Air Defense Base",
    "Details": "Air defense base in Bushehr",
    "Casualties": 8,
    "Injured": 4,
    "Killed": 2
  },
  {
    "name": "پدافند مشهد – خیابان نخ‌ریسی",
    "type": "injured",
    "date": "2025-06-13",
    "notes": "missile strike",
    "Category": "Military Bases",
    "Role": "Air Defense",
    "Coordinates": "36.2972, 59.6115",
    "Province": "Razavi Khorasan",
    "City": "Mashhad",
    "Address": "Nakhjavan Air Defense Base",
    "Details": "Air defense base in Mashhad",
    "Casualties": 10,
    "Injured": 5,
    "Killed": 3
  },
  {
    "name": "پدافند بابلسر – جاده بابلسر به ساری",
    "type": "military",
    "date": "2025-06-13",
    "notes": "missile strike",
    "Category": "Military Bases",
    "Role": "Air Defense",
    "Coordinates": "36.7, 52.65",
    "Province": "Mazandaran",
    "City": "Babolsar",
    "Address": "Babolsar Air Defense Base",
    "Details": "Air defense base in Babolsar",
    "Casualties": 9,
    "Injured": 4,
    "Killed": 2
  },
  {
    "name": "پدافند اراک – جاده خمین",
    "type": "nuclear",
    "date": "2025-06-14",
    "notes": "communications lost",
    "Category": "Military Bases",
    "Role": "Nuclear Site",
    "Coordinates": "34.0611, 49.6988",
    "Province": "Markazi",
    "City": "Arak",
    "Address": "Nuclear Site",
    "Details": "Nuclear site in Arak",
    "Casualties": 7,
    "Injured": 3,
    "Killed": 2
  },
  {
    "name": "دفتر استخدام کرمانشاه – شهید کشوری",
    "type": "killed",
    "date": "2025-06-14",
    "notes": "airstrike confirmed",
    "Category": "Military Bases",
    "Role": "Recruitment Office",
    "Coordinates": "34.33, 47.12",
    "Province": "Kermanshah",
    "City": "Kermanshah",
    "Address": "Recruitment Office",
    "Details": "Military recruitment office",
    "Casualties": 6,
    "Injured": 3,
    "Killed": 2
  },
  {
    "name": "پدافند هوایی اهواز – اتوبان شهید ستاری",
    "type": "injured",
    "date": "2025-06-13",
    "notes": "site under siege",
    "Category": "Military Bases",
    "Role": "Air Defense Base",
    "Coordinates": "31.302, 48.673",
    "Province": "Khuzestan",
    "City": "Ahvaz",
    "Address": "Shahid Satari Air Defense Base",
    "Details": "Air defense base in Ahvaz",
    "Casualties": 9,
    "Injured": 4,
    "Killed": 2
  },
  {
    "name": "اهواز – کیانپارس، خیابان مطهری غربی",
    "type": "military",
    "date": "2025-06-13",
    "notes": "site under siege",
    "Category": "Military Bases",
    "Role": "Military Base",
    "Coordinates": "31.313, 48.67",
    "Province": "Khuzestan",
    "City": "Ahvaz",
    "Address": "Kianpars Base",
    "Details": "Military base in Kianpars, Ahvaz",
    "Casualties": 10,
    "Injured": 5,
    "Killed": 3
  },
  {
    "name": "پدافند هوایی تبریز – جاده آذرشهر",
    "type": "military",
    "date": "2025-06-15",
    "notes": "commander wounded",
    "Category": "Military Bases",
    "Role": "Air Defense",
    "Coordinates": "38.0211, 46.219",
    "Province": "East Azerbaijan",
    "City": "Tabriz",
    "Address": "Tabriz Air Defense Base",
    "Details": "Air defense base in Tabriz",
    "Casualties": 8,
    "Injured": 4,
    "Killed": 2
  },
  {
    "name": "پادگان لشکر ۳۱ عاشورا – تبریز",
    "type": "nuclear",
    "date": "2025-06-14",
    "notes": "communications lost",
    "Category": "Military Bases",
    "Role": "Military Base",
    "Coordinates": "38.079, 46.289",
    "Province": "East Azerbaijan",
    "City": "Tabriz",
    "Address": "31st Ashoura Division Base",
    "Details": "Base for 31st Ashoura Division",
    "Casualties": 6,
    "Injured": 3,
    "Killed": 2
  },
  {
    "name": "پادگان لاکان – رشت",
    "type": "military",
    "date": "2025-06-14",
    "notes": "fuel depot ablaze",
    "Category": "Military Bases",
    "Role": "Logistics Base",
    "Coordinates": "37.245, 49.5885",
    "Province": "Gilan",
    "City": "Rasht",
    "Address": "Lakan Base",
    "Details": "Military base with logistics role",
    "Casualties": 7,
    "Injured": 3,
    "Killed": 2
  },
  {
    "name": "سپاه قدس گیلان – رشت",
    "type": "nuclear",
    "date": "2025-06-15",
    "notes": "site under siege",
    "Category": "Military Bases",
    "Role": "Quds Force Base",
    "Coordinates": "37.2785, 49.5855",
    "Province": "Gilan",
    "City": "Rasht",
    "Address": "Gilan Quds Force Base",
    "Details": "Base for Quds Force in Gilan",
    "Casualties": 5,
    "Injured": 2,
    "Killed": 1
  },
  {
    "name": "پادگان ارتش – ساری",
    "type": "military",
    "date": "2025-06-13",
    "notes": "commander wounded",
    "Category": "Military Bases",
    "Role": "Military Base",
    "Coordinates": "36.558, 53.0485",
    "Province": "Mazandaran",
    "City": "Sari",
    "Address": "Army Base",
    "Details": "Military base in Sari",
    "Casualties": 8,
    "Injured": 4,
    "Killed": 2
  },
  {
    "name": "سپاه کربلا مازندران – ساری",
    "type": "nuclear",
    "date": "2025-06-15",
    "notes": "airstrike confirmed",
    "Category": "Military Bases",
    "Role": "Quds Force Base",
    "Coordinates": "36.5635, 53.059",
    "Province": "Mazandaran",
    "City": "Sari",
    "Address": "Sari Quds Force Base",
    "Details": "Base for Quds Force in Mazandaran",
    "Casualties": 9,
    "Injured": 4,
    "Killed": 3
  },
  {
    "name": "تیپ ۷۷ پیاده ارتش – مشهد",
    "type": "military",
    "date": "2025-06-15",
    "notes": "communications lost",
    "Category": "Military Units",
    "Role": "Infantry Division",
    "Coordinates": "36.265, 59.61",
    "Province": "Razavi Khorasan",
    "City": "Mashhad",
    "Address": "77th Infantry Division Base",
    "Details": "Base for 77th Infantry Division",
    "Casualties": 4,
    "Injured": 2,
    "Killed": 1
  },
  {
    "name": "قرارگاه سپاه امام رضا – مشهد",
    "type": "nuclear",
    "date": "2025-06-16",
    "notes": "missile strike",
    "Category": "Military Bases",
    "Role": "Quds Force Base",
    "Coordinates": "36.29, 59.61",
    "Province": "Razavi Khorasan",
    "City": "Mashhad",
    "Address": "Imam Reza Base",
    "Details": "Base for Imam Reza Division",
    "Casualties": 6,
    "Injured": 3,
    "Killed": 2
  },
  {
    "name": "پادگان شهید مدنی – اهواز",
    "type": "military",
    "date": "2025-06-13",
    "notes": "civilian casualties",
    "Category": "Military Bases",
    "Role": "Military Base",
    "Coordinates": "31.3175, 48.673",
    "Province": "Khuzestan",
    "City": "Ahvaz",
    "Address": "Shahid Madani Base",
    "Details": "Military base in Ahvaz",
    "Casualties": 10,
    "Injured": 5,
    "Killed": 3
  },
  {
    "name": "پایگاه چهارم شکاری – اهواز",
    "type": "nuclear",
    "date": "2025-06-13",
    "notes": "army boss injured",
    "Category": "Military Bases",
    "Role": "Air Base",
    "Coordinates": "31.318, 48.681",
    "Province": "Khuzestan",
    "City": "Ahvaz",
    "Address": "4th Fighter Base",
    "Details": "Fighter base in Ahvaz",
    "Casualties": 8,
    "Injured": 4,
    "Killed": 2
  },
  {
    "name": "پادگان ابوذر – کرمانشاه",
    "type": "military",
    "date": "2025-06-15",
    "notes": "civilian casualties",
    "Category": "Military Bases",
    "Role": "Military Base",
    "Coordinates": "34.347, 47.0765",
    "Province": "Kermanshah",
    "City": "Kermanshah",
    "Address": "Abuzar Base",
    "Details": "Military base in Kermanshah",
    "Casualties": 7,
    "Injured": 3,
    "Killed": 2
  },
  {
    "name": "لشکر ۸۱ زرهی – کرمانشاه",
    "type": "nuclear",
    "date": "2025-06-13",
    "notes": "nuclear site hit",
    "Category": "Military Bases",
    "Role": "Armored Division",
    "Coordinates": "34.33, 47.103",
    "Province": "Kermanshah",
    "City": "Kermanshah",
    "Address": "81st Armored Division Base",
    "Details": "Base for 81st Armored Division",
    "Casualties": 9,
    "Injured": 4,
    "Killed": 3
  },
  {
    "name": "تیپ ۸۸ زرهی – زاهدان",
    "type": "military",
    "date": "2025-06-15",
    "notes": "nuclear site hit",
    "Category": "Military Bases",
    "Role": "Armored Division",
    "Coordinates": "29.485, 60.85",
    "Province": "Sistan and Baluchestan",
    "City": "Zahedan",
    "Address": "88th Armored Division Base",
    "Details": "Base for 88th Armored Division",
    "Casualties": 5,
    "Injured": 2,
    "Killed": 1
  },
  {
    "name": "قرارگاه قدس سپاه – زاهدان",
    "type": "nuclear",
    "date": "2025-06-14",
    "notes": "communications lost",
    "Category": "Military Bases",
    "Role": "Quds Force Base",
    "Coordinates": "29.48, 60.862",
    "Province": "Sistan and Baluchestan",
    "City": "Zahedan",
    "Address": "Quds Base",
    "Details": "Base for Quds Force in Zahedan",
    "Casualties": 6,
    "Injured": 3,
    "Killed": 2
  },
  {
    "name": "پایگاه نیروی دریایی سپاه – بندرعباس",
    "type": "military",
    "date": "2025-06-15",
    "notes": "airstrike confirmed",
    "Category": "Military Bases",
    "Role": "Naval Base",
    "Coordinates": "27.187, 56.278",
    "Province": "Hormozgan",
    "City": "Bandar Abbas",
    "Address": "Naval Base",
    "Details": "Naval base in Bandar Abbas",
    "Casualties": 10,
    "Injured": 5,
    "Killed": 3
  },
  {
    "name": "منطقه یکم نداجا – بندرعباس",
    "type": "nuclear",
    "date": "2025-06-16",
    "notes": "blackout in area",
    "Category": "Military Bases",
    "Role": "Naval Base",
    "Coordinates": "27.19, 56.29",
    "Province": "Hormozgan",
    "City": "Bandar عباس",
    "Address": "First Naval Zone",
    "Details": "First naval zone in Bandar عباس",
    "Casualties": 5,
    "Injured": 2,
    "Killed": 1
  },
  {
    "name": "پایگاه هوایی شهید نوژه – همدان",
    "type": "military",
    "date": "2025-06-13",
    "notes": "civilian casualties",
    "Category": "Military Bases",
    "Role": "Air Base",
    "Coordinates": "34.8692, 48.55",
    "Province": "Hamadan",
    "City": "Hamadan",
    "Address": "Shahid Nojeh Airbase",
    "Details": "Airbase in Hamadan",
    "Casualties": 8,
    "Injured": 4,
    "Killed": 2
  },
  {
    "name": "سپاه کردستان – سنندج",
    "type": "military",
    "date": "2025-06-14",
    "notes": "blackout in area",
    "Category": "Military Bases",
    "Role": "Quds Force Base",
    "Coordinates": "35.311, 46.998",
    "Province": "Kurdistan",
    "City": "Sanandaj",
    "Address": "Kurdistan Quds Force Base",
    "Details": "Base for Quds Force in Kurdistan",
    "Casualties": 6,
    "Injured": 3,
    "Killed": 2
  },
  {
    "name": "پادگان آموزشی ارتش – ایلام",
    "type": "target",
    "date": "2025-06-13",
    "notes": "site under siege",
    "Category": "Military Bases",
    "Role": "Training Base",
    "Coordinates": "33.637, 46.418",
    "Province": "Ilam",
    "City": "Ilam",
    "Address": "Army Training Base",
    "Details": "Training base for military personnel",
    "Casualties": 5,
    "Injured": 2,
    "Killed": 1
  },
  {
    "name": "پادگان ارتش – خرم‌آباد",
    "type": "nuclear",
    "date": "2025-06-15",
    "notes": "civilian casualties",
    "Category": "Military Bases",
    "Role": "Military Base",
    "Coordinates": "33.487, 48.343",
    "Province": "Lorestan",
    "City": "Khorramabad",
    "Address": "Army Base",
    "Details": "Military base in Khorramabad",
    "Casualties": 7,
    "Injured": 3,
    "Killed": 2
  },
  {
    "name": "تیپ ۲۳۰ ارتش – گرگان",
    "type": "military",
    "date": "2025-06-13",
    "notes": "blackout in area",
    "Category": "Military Bases",
    "Role": "Infantry Division",
    "Coordinates": "36.83, 54.48",
    "Province": "Golestan",
    "City": "Gorgan",
    "Address": "230th Infantry Division Base",
    "Details": "Base for 230th Infantry Division",
    "Casualties": 6,
    "Injured": 3,
    "Killed": 2
  },
  {
    "name": "سپاه اردبیل – اردبیل",
    "type": "nuclear",
    "date": "2025-06-13",
    "notes": "blackout in area",
    "Category": "Military Bases",
    "Role": "Quds Force Base",
    "Coordinates": "38.25, 48.3",
    "Province": "Ardabil",
    "City": "Ardabil",
    "Address": "Ardabil Quds Force Base",
    "Details": "Base for Quds Force in Ardabil",
    "Casualties": 7,
    "Injured": 3,
    "Killed": 2
  },
  {
    "name": "تیپ پدافند هوایی – بوشهر",
    "type": "military",
    "date": "2025-06-15",
    "notes": "army boss injured",
    "Category": "Military Bases",
    "Role": "Air Defense Base",
    "Coordinates": "28.918, 50.832",
    "Province": "Bushehr",
    "City": "Bushehr",
    "Address": "Bushehr Air Defense Base",
    "Details": "Air defense base in Bushehr",
    "Casualties": 8,
    "Injured": 4,
    "Killed": 2
  },
  {
    "name": "پادگان ارتش – قزوین",
    "type": "military",
    "date": "2025-06-14",
    "notes": "family killed",
    "Category": "Military Bases",
    "Role": "Military Base",
    "Coordinates": "36.2815, 50.0175",
    "Province": "Qazvin",
    "City": "Qazvin",
    "Address": "Army Base",
    "Details": "Military base in Qazvin",
    "Casualties": 7,
    "Injured": 3,
    "Killed": 2
  },
  {
    "name": "پادگان سپاه – زنجان",
    "type": "nuclear",
    "date": "2025-06-15",
    "notes": "explosion reported",
    "Category": "Military Bases",
    "Role": "Quds Force Base",
    "Coordinates": "36.6769, 48.4872",
    "Province": "Zanjan",
    "City": "Zanjan",
    "Address": "Zanjan Quds Force Base",
    "Details": "Base for Quds Force in Zanjan",
    "Casualties": 6,
    "Injured": 3,
    "Killed": 2
  },
  {
    "name": "پادگان نظامی – بیرجند",
    "type": "killed",
    "date": "2025-06-13",
    "notes": "site under siege",
    "Category": "Military Bases",
    "Role": "Military Base",
    "Coordinates": "32.8648, 59.2162",
    "Province": "South Khorasan",
    "City": "Birjand",
    "Address": "Birjand Military Base",
    "Details": "Military base in Birjand",
    "Casualties": 5,
    "Injured": 2,
    "Killed": 1
  },
  {
    "name": "سپاه خراسان شمالی – بجنورد",
    "type": "injured",
    "date": "2025-06-13",
    "notes": "army boss injured",
    "Category": "Military Bases",
    "Role": "Quds Force Base",
    "Coordinates": "37.4725, 57.315",
    "Province": "North Khorasan",
    "City": "Bojnurd",
    "Address": "North Khorasan Quds Force Base",
    "Details": "Base for Quds Force in North Khorasan",
    "Casualties": 6,
    "Injured": 3,
    "Killed": 2
  },
  {
    "name": "پادگان ارتش – یاسوج",
    "type": "military",
    "date": "2025-06-15",
    "notes": "nuclear site hit",
    "Category": "Military Bases",
    "Role": "Military Base",
    "Coordinates": "30.659, 51.591",
    "Province": "Boushehr",
    "City": "Yasuj",
    "Address": "Yasuj Military Base",
    "Details": "Military base in Yasuj",
    "Casualties": 7,
    "Injured": 3,
    "Killed": 2
  },
  {
    "name": "پادگان آموزشی ارتش – کرمان",
    "type": "nuclear",
    "date": "2025-06-15",
    "notes": "family killed",
    "Category": "Military Bases",
    "Role": "Training Base",
    "Coordinates": "30.283, 57.083",
    "Province": "Kerman",
    "City": "Kerman",
    "Address": "Kerman Training Base",
    "Details": "Training base for military personnel",
    "Casualties": 8,
    "Injured": 4,
    "Killed": 3
  }
]